{
"type": "FeatureCollection",
"name": "gemeinden_centroids",
"crs": { "type": "name", "properties": { "name": "urn:ogc:def:crs:OGC:1.3:CRS84" } },
"features": [
{ "type": "Feature", "properties": { "id": "30604", "name": "Baden", "sqkm": 26.882789263189874 }, "geometry": { "type": "Point", "coordinates": [ 16.228837735937049, 47.998740182196755 ] } },
{ "type": "Feature", "properties": { "id": "30729", "name": "Ebergassing", "sqkm": 16.260346284500947 }, "geometry": { "type": "Point", "coordinates": [ 16.519265127699473, 48.055860298573357 ] } },
{ "type": "Feature", "properties": { "id": "31111", "name": "Japons", "sqkm": 29.377743250547269 }, "geometry": { "type": "Point", "coordinates": [ 15.559195897351746, 48.802910908997667 ] } },
{ "type": "Feature", "properties": { "id": "40705", "name": "Gmunden", "sqkm": 63.561344191899828 }, "geometry": { "type": "Point", "coordinates": [ 13.824200218224068, 47.875414503277327 ] } },
{ "type": "Feature", "properties": { "id": "50403", "name": "Bad Gastein", "sqkm": 170.5666254059108 }, "geometry": { "type": "Point", "coordinates": [ 13.135708019260042, 47.0796937890984 ] } }
]
}
